[
  {"name": "강남역", "lat": "37.498095", "lng": "127.027610"},
  {"name": "홍대입구역", "lat": "37.557192", "lng": "126.925381"},
  {"name": "명동역", "lat": "37.563424", "lng": "126.986023"},
  {"name": "이태원역", "lat": "37.534567", "lng": "126.994756"},
  {"name": "서울역", "lat": "37.554648", "lng": "126.970731"},
  {"name": "종로3가역", "lat": "37.571607", "lng": "126.991806"},
  {"name": "을지로입구역", "lat": "37.566215", "lng": "126.982300"},
  {"name": "동대문역", "lat": "37.571378", "lng": "127.009593"},
  {"name": "사당역", "lat": "37.476487", "lng": "126.981685"},
  {"name": "신림역", "lat": "37.484223", "lng": "126.929737"},
  {"name": "건대입구역", "lat": "37.540467", "lng": "127.070189"},
  {"name": "잠실역", "lat": "37.513292", "lng": "127.100052"},
  {"name": "신촌역", "lat": "37.555134", "lng": "126.936893"},
  {"name": "압구정역", "lat": "37.527134", "lng": "127.028756"},
  {"name": "여의도역", "lat": "37.521545", "lng": "126.924328"},
  {"name": "교대역", "lat": "37.493135", "lng": "127.014634"},
  {"name": "역삼역", "lat": "37.500089", "lng": "127.035734"},
  {"name": "선릉역", "lat": "37.504567", "lng": "127.049023"},
  {"name": "삼성역", "lat": "37.508845", "lng": "127.063456"},
  {"name": "청담역", "lat": "37.519734", "lng": "127.054234"},
  {"name": "고속터미널역", "lat": "37.504456", "lng": "127.004567"},
  {"name": "양재역", "lat": "37.484223", "lng": "127.034567"},
  {"name": "낙성대역", "lat": "37.477345", "lng": "126.963234"},
  {"name": "수서역", "lat": "37.487456", "lng": "127.100234"},
  {"name": "개포동역", "lat": "37.481789", "lng": "127.065456"},
  {"name": "일원역", "lat": "37.484567", "lng": "127.082345"},
  {"name": "대치역", "lat": "37.494234", "lng": "127.062456"},
  {"name": "학여울역", "lat": "37.492345", "lng": "127.055678"},
  {"name": "대모산입구역", "lat": "37.489567", "lng": "127.081234"},
  {"name": "미금역", "lat": "37.554345", "lng": "127.102345"}
]